[ { "id": 1, "name": "Nasi Lemak", "category": "rice-based", "description": "Fragrant rice cooked in coconut milk, served with sambal, anchovies, peanuts and egg.", "ingredients": [ "rice", "coconut milk", "sambal", "anchovies", "peanuts", "egg" ], "images": [ "../assets/nasi-lemak.webp" ], "likes": 152, "favorites": 38, "location": { "city": "Ipoh", "state": "Perak" }, "tags": [ "spicy", "malay", "breakfast" ], "addedDate": "2025-08-26", "comment": [ { "userID": "user1", "text": "This is my favorite breakfast!" }, { "userID": "user2", "text": "Love the flavors in this dish." } ] },

{ "id": 2, "name": "Char Kway Teow", "category": "noodles", "description": "Stir-fried flat rice noodles with prawns and cockles.", "ingredients": [ "flat rice noodles", "prawns", "cockles", "egg", "bean sprouts" ], "images": [ "../assets/char-kway-teow.jpg" ], "likes": 324, "favorites": 76, "location": { "city": "George Town", "state": "Penang" }, "tags": [ "seafood", "stir-fry", "penang" ], "addedDate": "2025-07-14", "comment": [ { "userID": "user3", "text": "Best char kway teow in town!" }, { "userID": "user4", "text": "A bit oily but tasty." } ] },

{ "id": 3, "name": "Hainanese Chicken Rice", "category": "rice-based", "description": "Poached chicken with fragrant rice, chili sauce and ginger.", "ingredients": [ "chicken", "rice", "ginger", "garlic", "spring onion" ], "images": [ "../assets/hainan.jpg" ], "likes": 289, "favorites": 98, "location": { "city": "Kuala Lumpur", "state": "Wilayah Persekutuan" }, "tags": [ "chinese", "comfort-food" ], "addedDate": "2025-06-01", "comment": [ { "userID": "user5", "text": "Tender chicken and fragrant rice." } ] },

{ "id": 4, "name": "Laksa", "category": "noodles", "description": "Spicy coconut-based noodle soup with fish or prawns.", "ingredients": [ "rice noodles", "coconut milk", "fish paste", "tamarind", "cilantro" ], "images": [ "../assets/laksa.jpg" ], "likes": 412, "favorites": 120, "location": { "city": "Kota Bharu", "state": "Kelantan" }, "tags": [ "spicy", "soup" ], "addedDate": "2025-05-20", "comment": [ { "userID": "user7", "text": "Perfect balance of sour and spicy." } ] },

{ "id": 5, "name": "Roti Canai", "category": "bread-based", "description": "Flaky flatbread served with dhal or curry.", "ingredients": [ "flour", "water", "ghee", "salt" ], "images": [ "../assets/roti-canai.jpg" ], "likes": 198, "favorites": 44, "location": { "city": "Alor Setar", "state": "Kedah" }, "tags": [ "indian", "breakfast", "street-food" ], "addedDate": "2025-04-11", "comment": [ { "userID": "user8", "text": "Crispy at the edges, soft inside." } ] },

{ "id": 6, "name": "Satay", "category": "grilled", "description": "Skewered grilled meat served with peanut sauce.", "ingredients": [ "chicken", "beef", "peanut", "lemongrass", "turmeric" ], "images": [ "../assets/satay.avif" ], "likes": 450, "favorites": 140, "location": { "city": "Seremban", "state": "Negeri Sembilan" }, "tags": [ "peanut", "grilled", "street-food" ], "addedDate": "2025-03-03", "comment": [ { "userID": "user10", "text": "The peanut sauce is divine." } ] },

{ "id": 7, "name": "Rendang", "category": "fried", "description": "Slow-cooked dry beef curry with rich spices.", "ingredients": [ "beef", "coconut milk", "lemongrass", "galangal", "chilies" ], "images": [ "../assets/rendang.jpeg" ], "likes": 510, "favorites": 220, "location": { "city": "Kuala Lumpur", "state": "Wilayah Persekutuan" }, "tags": [ "spicy", "festive" ], "addedDate": "2025-01-25", "comment": [ { "userID": "user12", "text": "Rich and aromatic." } ] },

{ "id": 8, "name": "Mee Goreng", "category": "noodles", "description": "Stir-fried yellow noodles with vegetables and egg.", "ingredients": [ "yellow noodles", "egg", "tomato", "soy sauce", "shrimp" ], "images": [ "../assets/mee-goreng.jpg" ], "likes": 173, "favorites": 29, "location": { "city": "Klang", "state": "Selangor" }, "tags": [ "stir-fry", "comfort-food" ], "addedDate": "2024-12-10", "comment": [ { "userID": "user13", "text": "Simple and satisfying." } ] },

{ "id": 9, "name": "Curry Laksa", "category": "noodles", "description": "Curry-based noodle soup with tofu puffs and seafood.", "ingredients": [ "rice vermicelli", "curry paste", "coconut milk", "tofu puffs", "prawns" ], "images": [ "../assets/curry-laksa.jpg" ], "likes": 275, "favorites": 61, "location": { "city": "Johor Bahru", "state": "Johor" }, "tags": [ "spicy", "coconut" ], "addedDate": "2024-11-02", "comment": [ { "userID": "user14", "text": "Hearty bowl for rainy days." } ] },

{ "id": 10, "name": "Nasi Kandar", "category": "rice-based", "description": "Rice with various curries and side dishes.", "ingredients": [ "rice", "curry", "egg", "fried chicken", "vegetables" ], "images": [ "../assets/nasi-kandar.jpg" ], "likes": 333, "favorites": 89, "location": { "city": "George Town", "state": "Penang" }, "tags": [ "spicy", "penang", "street-food" ], "addedDate": "2024-10-18", "comment": [ { "userID": "user15", "text": "So many choices, great for sharing." } ] },

{ "id": 11, "name": "Nasi Goreng", "category": "rice-based", "description": "Fried rice with egg and vegetables.", "ingredients": [ "rice", "egg", "soy sauce", "chicken", "spring onion" ], "images": [ "../assets/nasi-kampung.jpg" ], "likes": 210, "favorites": 47, "location": { "city": "Malacca", "state": "Melaka" }, "tags": [ "stir-fry", "savory" ], "addedDate": "2024-09-05", "comment": [ { "userID": "user16", "text": "Comforting and easy to love." } ] },

{ "id": 12, "name": "Kuih Lapis", "category": "desserts", "description": "Layered steamed cake made with rice flour and coconut milk.", "ingredients": [ "rice flour", "coconut milk", "sugar", "food coloring" ], "images": [ "../assets/kuih-lapis.jpg" ], "likes": 95, "favorites": 22, "location": { "city": "Kuala Lumpur", "state": "Wilayah Persekutuan" }, "tags": [ "sweet", "traditional" ], "addedDate": "2024-08-20", "comment": [ { "userID": "user17", "text": "Pretty and tasty!" } ] },

{ "id": 13, "name": "Teh Tarik", "category": "desserts", "description": "Pulled tea with condensed milk, frothy and sweet.", "ingredients": [ "tea", "condensed milk", "sugar" ], "images": [ "../assets/teh-tarik.jpeg" ], "likes": 276, "favorites": 64, "location": { "city": "Kuala Lumpur", "state": "Wilayah Persekutuan" }, "tags": [ "sweet", "beverage" ], "addedDate": "2024-07-11", "comment": [ { "userID": "user18", "text": "Best with roti canai." } ] },

{ "id": 14, "name": "Bak Kut Teh", "category": "soup", "description": "Herbal pork rib soup simmered with Chinese herbs.", "ingredients": [ "pork ribs", "garlic", "herbs", "soy sauce" ], "images": [ "../assets/bak-kut-teh.png" ], "likes": 198, "favorites": 52, "location": { "city": "Ipoh", "state": "Perak" }, "tags": [ "herbal", "chinese", "soup" ], "addedDate": "2024-06-30", "comment": [ { "userID": "user19", "text": "Hearty soup, great with rice." } ] },

{ "id": 15, "name": "Cendol", "category": "desserts", "description": "Iced dessert with green jelly, coconut milk and palm sugar.", "ingredients": [ "rice flour", "coconut milk", "palm sugar", "shaved ice" ], "images": [ "../assets/cendol.jpg" ], "likes": 342, "favorites": 105, "location": { "city": "Ipoh", "state": "Perak" }, "tags": [ "sweet", "refreshing" ], "addedDate": "2024-05-16", "comment": [ { "userID": "user20", "text": "Perfect for hot weather." } ] },

{ "id": 16, "name": "Apam Balik", "category": "wraps", "description": "Folded pancake filled with peanuts, sugar and corn.", "ingredients": [ "flour", "peanuts", "corn", "sugar" ], "images": [ "../assets/apam-balik.jpg" ], "likes": 87, "favorites": 19, "location": { "city": "Kuala Lumpur", "state": "Wilayah Persekutuan" }, "tags": [ "sweet", "street-food" ], "addedDate": "2024-04-02", "comment": [ { "userID": "user22", "text": "Nostalgic snack!" } ] },

{ "id": 17, "name": "Nasi Ulam", "category": "rice-based", "description": "Herb rice salad mixed with shredded herbs and toasted coconut.", "ingredients": [ "rice", "herbs", "coconut", "shallots" ], "images": [ "../assets/nasi-ulam.jpg" ], "likes": 64, "favorites": 12, "location": { "city": "Kuantan", "state": "Pahang" }, "tags": [ "herbal", "healthy" ], "addedDate": "2024-03-07", "comment": [ { "userID": "user23", "text": "Fresh and light." } ] },

{ "id": 18, "name": "Pisang Goreng", "category": "fried", "description": "Fried banana fritters, crispy and sweet.", "ingredients": [ "banana", "flour", "oil", "sugar" ], "images": [ "../assets/pisang-goreng.jpg" ], "likes": 142, "favorites": 31, "location": { "city": "Kuala Terengganu", "state": "Terengganu" }, "tags": [ "sweet", "snack" ], "addedDate": "2024-02-12", "comment": [ { "userID": "user24", "text": "Great with a cup of coffee." } ] },

{ "id": 19, "name": "Otak-Otak", "category": "grilled", "description": "Grilled fish paste wrapped in banana leaf, spicy and smoky.", "ingredients": [ "fish paste", "spices", "banana leaf" ], "images": [ "../assets/otak-otak.jpg" ], "likes": 201, "favorites": 53, "location": { "city": "Kota Kinabalu", "state": "Sabah" }, "tags": [ "seafood", "grilled", "spicy" ], "addedDate": "2024-01-25", "comment": [ { "userID": "user25", "text": "Smoky flavor is amazing." } ] },

{ "id": 20, "name": "Nasi Dagang", "category": "rice-based", "description": "Glutinous rice steamed with coconut milk, served with fish curry.", "ingredients": [ "glutinous rice", "coconut milk", "fish", "spices" ], "images": [ "../assets/nasi-dagang.webp" ], "likes": 178, "favorites": 42, "location": { "city": "Kuala Terengganu", "state": "Terengganu" }, "tags": [ "traditional", "seafood", "breakfast" ], "addedDate": "2023-12-10", "comment": [ { "userID": "user26", "text": "Filling and flavorful." } ] },

{ "id": 21, "name": "Hokkien Mee", "category": "noodles", "description": "Thick yellow noodles braised in dark soy with pork and prawns.", "ingredients": [ "yellow noodles", "pork", "prawns", "dark soy sauce" ], "images": [ "../assets/hokkien-mee.jpg" ], "likes": 250, "favorites": 67, "location": { "city": "Ipoh", "state": "Perak" }, "tags": [ "savory", "stir-fry" ], "addedDate": "2023-11-04", "comment": [ { "userID": "user27", "text": "Rich and smoky flavor." } ] },

{ "id": 22, "name": "Fish Head Curry", "category": "rice-based", "description": "Spicy and tangy curry with a fish head and vegetables.", "ingredients": [ "fish head", "tamarind", "curry paste", "vegetables" ], "images": [ "../assets/fish-head.jpg" ], "likes": 310, "favorites": 84, "location": { "city": "Penang", "state": "Penang" }, "tags": [ "seafood", "spicy" ], "addedDate": "2023-10-15", "comment": [ { "userID": "user28", "text": "Bold flavors, perfect with rice." } ] },

{ "id": 23, "name": "Mee Rebus", "category": "noodles", "description": "Noodles in a sweet potato-based gravy topped with egg.", "ingredients": [ "yellow noodles", "sweet potato", "egg", "tofu", "shallots" ], "images": [ "../assets/mee-rebus.jpg" ], "likes": 139, "favorites": 30, "location": { "city": "Malacca", "state": "Melaka" }, "tags": [ "sweet", "comfort-food" ], "addedDate": "2023-09-02", "comment": [ { "userID": "user29", "text": "Unique gravy, really enjoyed it." } ] },

{ "id": 24, "name": "Karipap", "category": "wraps", "description": "Curry puff with spicy potato filling.", "ingredients": [ "flour", "potato", "curry powder", "onion" ], "images": [ "../assets/karipap.jpg" ], "likes": 112, "favorites": 26, "location": { "city": "Shah Alam", "state": "Selangor" }, "tags": [ "snack", "indian" ], "addedDate": "2023-08-11", "comment": [ { "userID": "user30", "text": "Great on-the-go snack." } ] },

{ "id": 25, "name": "Murtabak", "category": "wraps", "description": "Stuffed pan-fried bread with minced meat and egg.", "ingredients": [ "flour", "minced beef", "egg", "onion", "spices" ], "images": [ "../assets/murtabak.avif" ], "likes": 267, "favorites": 72, "location": { "city": "Kuala Lumpur", "state": "Wilayah Persekutuan" }, "tags": [ "savory", "street-food" ], "addedDate": "2023-07-05", "comment": [ { "userID": "user31", "text": "Hearty and filling." } ] },

{ "id": 26, "name": "Assam Pedas", "category": "soup", "description": "Sour and spicy fish stew made with tamarind and chilies.", "ingredients": [ "fish", "tamarind", "chilies", "tomato", "okra" ], "images": [ "../assets/asam-pedas.jpg" ], "likes": 186, "favorites": 40, "location": { "city": "Kota Kinabalu", "state": "Sabah" }, "tags": [ "sour", "spicy" ], "addedDate": "2023-06-22", "comment": [ { "userID": "user32", "text": "Tangy and spicy hit!" } ] },

{ "id": 27, "name": "Penang Rojak", "category": "wraps", "description": "Mixed fruit and vegetable salad tossed in shrimp paste sauce (served wrapped sometimes).", "ingredients": [ "pineapple", "cucumber", "tofu", "shrimp paste", "peanuts" ], "images": [ "../assets/rojak-penang.jpg" ], "likes": 121, "favorites": 27, "location": { "city": "George Town", "state": "Penang" }, "tags": [ "sweet", "spicy" ], "addedDate": "2023-05-08", "comment": [ { "userID": "user33", "text": "Love the crunch and sauce." } ] },

{ "id": 28, "name": "Lor Bak", "category": "fried", "description": "Five-spice pork rolls wrapped in beancurd skin and deep fried.", "ingredients": [ "pork", "five-spice", "beancurd skin", "garlic" ], "images": [ "../assets/lorbak.jpg" ], "likes": 145, "favorites": 34, "location": { "city": "Ipoh", "state": "Perak" }, "tags": [ "crispy", "chinese" ], "addedDate": "2023-04-12", "comment": [ { "userID": "user34", "text": "Crunchy and flavorful." } ] },

{ "id": 29, "name": "Kuih Ketayap", "category": "desserts", "description": "Pandan crepes filled with sweet grated coconut and palm sugar.", "ingredients": [ "flour", "pandan", "coconut", "palm sugar" ], "images": [ "../assets/kuih-ketayap.jpg" ], "likes": 98, "favorites": 20, "location": { "city": "Langkawi", "state": "Kedah" }, "tags": [ "sweet", "traditional" ], "addedDate": "2023-03-09", "comment": [ { "userID": "user35", "text": "Aromatic and sweet." } ] },

{ "id": 30, "name": "Mee Hoon Soup", "category": "soup", "description": "Clear noodle soup with shredded chicken, light and comforting.", "ingredients": [ "rice vermicelli", "chicken", "ginger", "spring onion" ], "images": [ "../assets/bihun-soup.jpg" ], "likes": 74, "favorites": 13, "location": { "city": "Sandakan", "state": "Sabah" }, "tags": [ "light", "comfort-food" ], "addedDate": "2023-02-01", "comment": [ { "userID": "user36", "text": "Simple and soothing." } ] },

{ "id": 31, "name": "Nasi Kerabu", "category": "rice-based", "description": "Blue rice served with herbs, salted egg and sambal.", "ingredients": [ "rice", "butterfly pea", "herbs", "salted egg" ], "images": [ "../assets/nasi-kerabu.webp" ], "likes": 160, "favorites": 39, "location": { "city": "Kota Bharu", "state": "Kelantan" }, "tags": [ "colorful", "herbal" ], "addedDate": "2023-01-11", "comment": [ { "userID": "user37", "text": "Beautiful presentation and taste." } ] },

{ "id": 32, "name": "Sambal Udang", "category": "grilled", "description": "Prawns cooked in a rich and spicy sambal sauce.", "ingredients": [ "prawns", "chilies", "onion", "tomato", "sugar" ], "images": [ "../assets/sambal-udang.png" ], "likes": 215, "favorites": 58, "location": { "city": "George Town", "state": "Penang" }, "tags": [ "spicy", "seafood" ], "addedDate": "2022-12-12", "comment": [ { "userID": "user38", "text": "Delicious sambal with nice heat." } ] },

{ "id": 33, "name": "Tau Foo Fah", "category": "desserts", "description": "Silky tofu pudding served with sweet syrup, warm or cold.", "ingredients": [ "soy milk", "coagulant", "sugar" ], "images": [ "../assets/toufu-pudding.webp" ], "likes": 103, "favorites": 21, "location": { "city": "Ipoh", "state": "Perak" }, "tags": [ "dessert", "light" ], "addedDate": "2022-11-05", "comment": [ { "userID": "user39", "text": "Smooth texture, lovely dessert." } ] },

{ "id": 34, "name": "Ikan Bakar", "category": "grilled", "description": "Grilled marinated fish served with sambal and lime.", "ingredients": [ "fish", "spices", "banana leaf", "sambal" ], "images": [ "../assets/ikan-bakar.webp" ], "likes": 190, "favorites": 49, "location": { "city": "Kuala Terengganu", "state": "Terengganu" }, "tags": [ "grilled", "seafood" ], "addedDate": "2022-10-14", "comment": [ { "userID": "user40", "text": "Smoky and perfectly grilled." } ] },

{ "id": 35, "name": "Ayam Percik", "category": "grilled", "description": "Roasted chicken glazed with spicy coconut sauce.", "ingredients": [ "chicken", "coconut milk", "spices", "garlic" ], "images": [ "../assets/ayam-percik.jpg" ], "likes": 231, "favorites": 60, "location": { "city": "Kuala Lumpur", "state": "Wilayah Persekutuan" }, "tags": [ "grilled", "spicy" ], "addedDate": "2022-09-01", "comment": [ { "userID": "user41", "text": "Juicy and flavorful." } ] },

{ "id": 36, "name": "Soto Ayam", "category": "soup", "description": "Traditional chicken soup with turmeric, vermicelli and egg.", "ingredients": [ "chicken", "turmeric", "vermicelli", "egg", "lemongrass" ], "images": [ "../assets/soto-ayam.jpg" ], "likes": 154, "favorites": 33, "location": { "city": "Kuching", "state": "Sarawak" }, "tags": [ "soup", "comfort-food" ], "addedDate": "2022-08-09", "comment": [ { "userID": "user42", "text": "Warm and comforting." } ] },

{ "id": 37, "name": "Udang Masak Lemak", "category": "grilled", "description": "Prawns in a creamy coconut and turmeric gravy.", "ingredients": [ "prawns", "coconut milk", "turmeric", "lemongrass" ], "images": [ "../assets/udang-masak-lemak.jpeg" ], "likes": 166, "favorites": 28, "location": { "city": "Kota Kinabalu", "state": "Sabah" }, "tags": [ "coconut", "creamy" ], "addedDate": "2022-07-02", "comment": [ { "userID": "user43", "text": "Creamy and fragrant." } ] },

{ "id": 38, "name": "Banana Leaf Rice", "category": "rice-based", "description": "Assorted dishes served on banana leaf with rice and pickles.", "ingredients": [ "rice", "various curries", "vegetables", "pickles" ], "images": [ "../assets/banana-leaf.webp" ], "likes": 280, "favorites": 90, "location": { "city": "Brickfields", "state": "Kuala Lumpur" }, "tags": [ "indian", "spicy" ], "addedDate": "2022-06-15", "comment": [ { "userID": "user44", "text": "Great variety and flavors." } ] },

{ "id": 39, "name": "Mee Bandung", "category": "noodles", "description": "Noodles in a shrimp and beef flavored broth with spices.", "ingredients": [ "yellow noodles", "shrimp paste", "beef", "egg" ], "images": [ "../assets/mee-bandung.jpg" ], "likes": 134, "favorites": 24, "location": { "city": "Johor Bahru", "state": "Johor" }, "tags": [ "savory", "meaty" ], "addedDate": "2022-05-03", "comment": [ { "userID": "user45", "text": "Strong umami flavors." } ] },

{ "id": 40, "name": "Ayam Goreng Berempah", "category": "fried", "description": "Spiced fried chicken with aromatic herbs.", "ingredients": [ "chicken", "spices", "garlic", "turmeric" ], "images": [ "../assets/berempah.jpg" ], "likes": 299, "favorites": 81, "location": { "city": "Seremban", "state": "Negeri Sembilan" }, "tags": [ "crispy", "spicy" ], "addedDate": "2022-04-08", "comment": [ { "userID": "user46", "text": "Crispy skin and juicy inside." } ] },

{ "id": 41, "name": "Pulut Panggang", "category": "grilled", "description": "Grilled glutinous rice filled with spiced coconut or fish.", "ingredients": [ "glutinous rice", "coconut", "spices", "banana leaf" ], "images": [ "../assets/pulut-panggang.jpg" ], "likes": 76, "favorites": 15, "location": { "city": "Kuala Lumpur", "state": "Wilayah Persekutuan" }, "tags": [ "grilled", "traditional" ], "addedDate": "2022-03-01", "comment": [ { "userID": "user47", "text": "Nicely charred and fragrant." } ] },

{ "id": 42, "name": "Roti Jala", "category": "bread-based", "description": "Net-like crepe served with curry.", "ingredients": [ "flour", "egg", "milk", "turmeric" ], "images": [ "../assets/roti-jala.jpg" ], "likes": 89, "favorites": 18, "location": { "city": "Kuala Terengganu", "state": "Terengganu" }, "tags": [ "indian", "breakfast" ], "addedDate": "2022-02-10", "comment": [ { "userID": "user48", "text": "Great with curry." } ] },

{ "id": 43, "name": "Keropok Lekor", "category": "fried", "description": "Traditional fish crackers, chewy and fried.", "ingredients": [ "fish", "sago", "salt" ], "images": [ "../assets/lekor.webp" ], "likes": 120, "favorites": 25, "location": { "city": "Kuala Terengganu", "state": "Terengganu" }, "tags": [ "seafood", "snack" ], "addedDate": "2022-01-05", "comment": [ { "userID": "user49", "text": "Chewy and tasty with chili sauce." } ] },

{ "id": 44, "name": "Lontong", "category": "rice-based", "description": "Compressed rice cakes in coconut gravy with vegetables.", "ingredients": [ "rice cakes", "coconut milk", "vegetables", "sambal" ], "images": [ "../assets/lontong.webp" ], "likes": 130, "favorites": 28, "location": { "city": "Kuala Lumpur", "state": "Wilayah Persekutuan" }, "tags": [ "festive", "traditional" ], "addedDate": "2021-12-20", "comment": [ { "userID": "user50", "text": "Comforting and rich." } ] },

{ "id": 45, "name": "Nasi Minyak", "category": "rice-based", "description": "Fragrant rice cooked with ghee and spices, served at celebrations.", "ingredients": [ "rice", "ghee", "raisins", "spices" ], "images": [ "../assets/nasi-minyak.jpg" ], "likes": 99, "favorites": 21, "location": { "city": "Alor Setar", "state": "Kedah" }, "tags": [ "festive", "fragrant" ], "addedDate": "2021-11-11", "comment": [ { "userID": "user51", "text": "Great for special occasions." } ] },

{ "id": 46, "name": "Nasi Ambeng", "category": "rice-based", "description": "Communal platter with rice and assorted side dishes.", "ingredients": [ "rice", "fried chicken", "sambal goreng", "sambal" ], "images": [ "../assets/nasi-ambeng.jpg" ], "likes": 142, "favorites": 34, "location": { "city": "Selangor", "state": "Selangor" }, "tags": [ "sharing", "javanese" ], "addedDate": "2021-10-08", "comment": [ { "userID": "user52", "text": "Great for gatherings." } ] },

{ "id": 47, "name": "Seri Muka", "category": "desserts", "description": "Two-layered dessert with glutinous rice and pandan custard.", "ingredients": [ "glutinous rice", "pandan", "coconut milk", "sugar" ], "images": [ "../assets/seri-muka.jpg" ], "likes": 86, "favorites": 17, "location": { "city": "Melaka", "state": "Melaka" }, "tags": [ "sweet", "traditional" ], "addedDate": "2021-09-01", "comment": [ { "userID": "user53", "text": "Classic dessert, love the pandan layer." } ] },

{ "id": 48, "name": "Nasi Putih with Daging Masak Hitam", "category": "rice-based", "description": "White rice served with sweet and savory blackened beef.", "ingredients": [ "rice", "beef", "soy sauce", "onion", "sugar" ], "images": [ "../assets/daging-hitam.jpg" ], "likes": 111, "favorites": 26, "location": { "city": "Kuala Lumpur", "state": "Wilayah Persekutuan" }, "tags": [ "savory", "beef" ], "addedDate": "2021-08-10", "comment": [ { "userID": "user54", "text": "Rich and savory." } ] },

{ "id": 49, "name": "Sambal Sotong", "category": "grilled", "description": "Squid cooked in spicy sambal sauce.", "ingredients": [ "squid", "chilies", "onion", "sugar" ], "images": [ "../assets/sambal-sotong.webp" ], "likes": 127, "favorites": 29, "location": { "city": "Penang", "state": "Penang" }, "tags": [ "spicy", "seafood" ], "addedDate": "2021-07-05", "comment": [ { "userID": "user55", "text": "Perfectly balanced heat." } ] },

{ "id": 50, "name": "Gulai Kawah", "category": "fried", "description": "Large-pot slow-cooked curry with rich spices.", "ingredients": [ "beef", "curry paste", "coconut milk", "spices" ], "images": [ "../assets/gulai-kawah.webp" ], "likes": 158, "favorites": 37, "location": { "city": "Kuala Lumpur", "state": "Wilayah Persekutuan" }, "tags": [ "hearty", "spicy" ], "addedDate": "2021-06-14", "comment": [ { "userID": "user56", "text": "Great for large gatherings." } ] },

{ "id": 51, "name": "Nasi Biryani (Local Style)", "category": "rice-based", "description": "Fragrant spiced rice cooked with meat and aromatic herbs.", "ingredients": [ "rice", "biryani spices", "chicken", "yogurt" ], "images": [ "../assets/nasi-biryani.jpg" ], "likes": 220, "favorites": 66, "location": { "city": "Brickfields", "state": "Kuala Lumpur" }, "tags": [ "indian", "festive" ], "addedDate": "2021-05-12", "comment": [ { "userID": "user57", "text": "Aromatic and satisfying." } ] },

{ "id": 52, "name": "Nasi Himpit with Rendang", "category": "rice-based", "description": "Compressed rice cubes served with rich rendang.", "ingredients": [ "compressed rice", "beef rendang", "spices" ], "images": [ "../assets/nasi-himpit.avif" ], "likes": 134, "favorites": 30, "location": { "city": "Kuala Lumpur", "state": "Wilayah Persekutuan" }, "tags": [ "festive", "traditional" ], "addedDate": "2021-04-10", "comment": [ { "userID": "user58", "text": "Perfect for celebrations." } ] },

{ "id": 53, "name": "Ikan Masak 3 Rasa", "category": "grilled", "description": "Fish cooked in sweet, sour and spicy sauce.", "ingredients": [ "fish", "tomato", "chilies", "vinegar" ], "images": [ "../assets/tiga-rasa.jpg" ], "likes": 145, "favorites": 35, "location": { "city": "Kuala Lumpur", "state": "Wilayah Persekutuan" }, "tags": [ "sweet", "sour", "spicy" ], "addedDate": "2021-03-08", "comment": [ { "userID": "user59", "text": "Great flavor combination." } ] },

{ "id": 54, "name": "Bubur Lambuk", "category": "soup", "description": "Savory porridge cooked with spices and meat, served during Ramadan.", "ingredients": [ "rice", "meat", "spices", "coconut milk" ], "images": [ "../assets/bubur-lambuk.avif" ], "likes": 98, "favorites": 22, "location": { "city": "Kuala Lumpur", "state": "Wilayah Persekutuan" }, "tags": [ "festive", "savory" ], "addedDate": "2021-02-15", "comment": [ { "userID": "user60", "text": "Comforting and aromatic." } ] },

{ "id": 55, "name": "Soto Betawi", "category": "soup", "description": "Creamy beef soup with coconut milk and spices.", "ingredients": [ "beef", "coconut milk", "potato", "spices" ], "images": [ "../assets/soto-betawi.avif" ], "likes": 119, "favorites": 28, "location": { "city": "Kuala Lumpur", "state": "Wilayah Persekutuan" }, "tags": [ "creamy", "soup" ], "addedDate": "2021-01-10", "comment": [ { "userID": "user61", "text": "Rich and satisfying." } ] },

{ "id": 56, "name": "Nasi Kukus with Ayam Goreng", "category": "rice-based", "description": "Steamed fragrant rice served with spiced fried chicken.", "ingredients": [ "rice", "chicken", "spices", "coconut milk" ], "images": [ "../assets/nasi-kukus.jpeg" ], "likes": 170, "favorites": 45, "location": { "city": "Kuala Lumpur", "state": "Wilayah Persekutuan" }, "tags": [ "spicy", "fried" ], "addedDate": "2020-12-01", "comment": [ { "userID": "user62", "text": "Crispy chicken with fragrant rice." } ] },

{ "id": 57, "name": "Nasi Lemak Rendang Combo", "category": "rice-based", "description": "Nasi lemak served with a side of rendang.", "ingredients": [ "rice", "coconut milk", "rendang", "sambal" ], "images": [ "../assets/nasi-lemak-rendang.avif" ], "likes": 205, "favorites": 59, "location": { "city": "Ipoh", "state": "Perak" }, "tags": [ "rich", "spicy" ], "addedDate": "2020-11-11", "comment": [ { "userID": "user63", "text": "Best of both worlds." } ] },

{ "id": 58, "name": "Soto Medan", "category": "soup", "description": "Spiced coconut-based soup with noodles and meat.", "ingredients": [ "noodles", "meat", "coconut milk", "spices" ], "images": [ "../assets/soto-medan.webp" ], "likes": 88, "favorites": 20, "location": { "city": "Kuala Lumpur", "state": "Wilayah Persekutuan" }, "tags": [ "spicy", "soup" ], "addedDate": "2020-10-05", "comment": [ { "userID": "user64", "text": "Flavorful broth." } ] },

{ "id": 59, "name": "Nasi Tumpang", "category": "rice-based", "description": "Layered rice cone with various fillings wrapped in banana leaf.", "ingredients": [ "rice", "meat", "vegetables", "spices" ], "images": [ "../assets/nasi-tumpang.jpg" ], "likes": 73, "favorites": 16, "location": { "city": "Kuala Krai", "state": "Kelantan" }, "tags": [ "portable", "traditional" ], "addedDate": "2020-09-01", "comment": [ { "userID": "user65", "text": "Handy and tasty snack." } ] },

{ "id": 60, "name": "Popiah Basah", "category": "wraps", "description": "Fresh spring roll with vegetables and sweet sauce.", "ingredients": [ "wrapper", "vegetables", "peanut sauce", "tofu" ], "images": [ "../assets/popiah-basah.jpeg" ], "likes": 96, "favorites": 19, "location": { "city": "George Town", "state": "Penang" }, "tags": [ "fresh", "street-food" ], "addedDate": "2020-08-08", "comment": [ { "userID": "user66", "text": "Light and tasty." } ] },

{ "id": 61, "name": "Nasi Kak Wok Special", "category": "rice-based", "description": "Local specialty rice with spiced chicken and condiments.", "ingredients": [ "rice", "spiced chicken", "sambal", "vegetables" ], "images": [ "../assets/nasi-kakwok.jpg" ], "likes": 132, "favorites": 31, "location": { "city": "Seremban", "state": "Negeri Sembilan" }, "tags": [ "local", "spicy" ], "addedDate": "2020-07-07", "comment": [ { "userID": "user67", "text": "A beloved local classic." } ] },

{ "id": 62, "name": "Kueh Talam", "category": "desserts", "description": "Two-layered kuih with coconut and pandan layers.", "ingredients": [ "rice flour", "coconut milk", "pandan", "sugar" ], "images": [ "../assets/kuih-talam.jpg" ], "likes": 81, "favorites": 14, "location": { "city": "Kuala Lumpur", "state": "Wilayah Persekutuan" }, "tags": [ "traditional", "dessert" ], "addedDate": "2020-06-01", "comment": [ { "userID": "user68", "text": "Lovely textures." } ] },

{ "id": 63, "name": "Ikan Tempra (Local)", "category": "fried", "description": "Lightly battered fried fish pieces served with dipping sauce.", "ingredients": [ "fish", "flour", "seasoning", "oil" ], "images": [ "../assets/ikan-tempra.jpg" ], "likes": 102, "favorites": 23, "location": { "city": "Kota Kinabalu", "state": "Sabah" }, "tags": [ "fried", "snack" ], "addedDate": "2020-05-05", "comment": [ { "userID": "user69", "text": "Crispy and light." } ] },

{ "id": 64, "name": "Nasi Lemak Ayam Goreng", "category": "rice-based", "description": "Classic nasi lemak served with fried chicken.", "ingredients": [ "rice", "coconut milk", "fried chicken", "sambal" ], "images": [ "../assets/nasi-lemak-goreng.jpg" ], "likes": 210, "favorites": 70, "location": { "city": "Ipoh", "state": "Perak" }, "tags": [ "breakfast", "fried" ], "addedDate": "2020-04-10", "comment": [ { "userID": "user70", "text": "My go-to weekend breakfast." } ] },

{ "id": 65, "name": "Mee Celup", "category": "noodles", "description": "Mixed noodles boiled and served with spicy broth.", "ingredients": [ "egg noodles", "rice noodles", "broth", "vegetables" ], "images": [ "../assets/mee-celup.jpg" ], "likes": 77, "favorites": 12, "location": { "city": "Malacca", "state": "Melaka" }, "tags": [ "spicy", "street-food" ], "addedDate": "2020-03-03", "comment": [ { "userID": "user71", "text": "Simple and flavorful." } ] },

{ "id": 66, "name": "Dodol", "category": "desserts", "description": "Sticky sweet toffee-like confection made from coconut milk and rice flour.", "ingredients": [ "coconut milk", "rice flour", "palm sugar" ], "images": [ "../assets/dodol.jpg" ], "likes": 68, "favorites": 10, "location": { "city": "Johor Bahru", "state": "Johor" }, "tags": [ "sweet", "festive" ], "addedDate": "2020-02-01", "comment": [ { "userID": "user72", "text": "Chewy and sweet, classic treat." } ] },

{ "id": 67, "name": "Nasi Ulam Patin", "category": "rice-based", "description": "Herbal rice served with grilled patin fish and ulam.", "ingredients": [ "rice", "herbs", "patin fish", "coconut" ], "images": [ "img67.jpg" ], "likes": 91, "favorites": 18, "location": { "city": "Pahang", "state": "Pahang" }, "tags": [ "herbal", "seafood" ], "addedDate": "2020-01-10", "comment": [ { "userID": "user73", "text": "Fresh and fragrant." } ] },

{ "id": 68, "name": "Laksam", "category": "noodles", "description": "Rice noodle rolls served in rich fish-based gravy.", "ingredients": [ "rice rolls", "fish gravy", "coconut milk", "herbs" ], "images": [ "../assets/laksam.jpg" ], "likes": 79, "favorites": 14, "location": { "city": "Kota Bharu", "state": "Kelantan" }, "tags": [ "traditional", "soup" ], "addedDate": "2019-12-05", "comment": [ { "userID": "user74", "text": "Classic Kelantan flavor." } ] },

{ "id": 69, "name": "Ayam Masak Merah", "category": "fried", "description": "Chicken cooked in tomato-based spicy sauce.", "ingredients": [ "chicken", "tomato", "chilies", "spices" ], "images": [ "../assets/ayam-merah.jpeg" ], "likes": 140, "favorites": 36, "location": { "city": "Kuala Lumpur", "state": "Wilayah Persekutuan" }, "tags": [ "spicy", "savory" ], "addedDate": "2019-11-11", "comment": [ { "userID": "user75", "text": "Great with plain rice." } ] },

{ "id": 70, "name": "Sate Matang", "category": "grilled", "description": "Local-style satay with special marinade and peanut sauce.", "ingredients": [ "beef", "chicken", "peanut sauce", "lemongrass" ], "images": [ "../assets/sate-matang.jpg" ], "likes": 156, "favorites": 42, "location": { "city": "Perlis", "state": "Perlis" }, "tags": [ "grilled", "peanut" ], "addedDate": "2019-10-02", "comment": [ { "userID": "user76", "text": "Smoky and delicious." } ] },

{ "id": 71, "name": "Mee Goreng Mamak", "category": "noodles", "description": "Spicy and tangy fried noodles from Mamak stalls.", "ingredients": [ "yellow noodles", "egg", "tomato", "sambal" ], "images": [ "../assets/maggi.jpg" ], "likes": 168, "favorites": 46, "location": { "city": "Penang", "state": "Penang" }, "tags": [ "spicy", "street-food" ], "addedDate": "2019-09-01", "comment": [ { "userID": "user77", "text": "Classic Mamak flavor." } ] },

{ "id": 72, "name": "Sambal Udang Petai", "category": "grilled", "description": "Stir-fried prawns with petai beans in a spicy sambal sauce.", "ingredients": [ "prawns", "petai", "chilies", "onion", "garlic" ], "images": [ "../assets/sambal-udang-petai.jpg" ], "likes": 185, "favorites": 55, "location": { "city": "George Town", "state": "Penang" }, "tags": [ "spicy", "seafood" ], "addedDate": "2024-04-15", "comment": [ { "userID": "user138", "text": "Flavor explosion!" } ] },

{ "id": 73, "name": "Nasi Lemak Ayam Rendang", "category": "rice-based", "description": "Nasi lemak served with a hearty portion of rendang.", "ingredients": [ "rice", "coconut milk", "beef rendang", "sambal" ], "images": [ "img73.jpg" ], "likes": 248, "favorites": 78, "location": { "city": "Ipoh", "state": "Perak" }, "tags": [ "rich", "spicy" ], "addedDate": "2019-07-07", "comment": [ { "userID": "user79", "text": "Perfect combination." } ] },

{ "id": 74, "name": "Kari Kepala Ikan", "category": "soup", "description": "Aromatic fish head curry with tangy notes.", "ingredients": [ "fish head", "tamarind", "curry paste", "vegetables" ], "images": [ "../assets/fish-head.jpg" ], "likes": 199, "favorites": 52, "location": { "city": "Penang", "state": "Penang" }, "tags": [ "spicy", "seafood" ], "addedDate": "2019-06-05", "comment": [ { "userID": "user80", "text": "Bold and hearty." } ] },

{ "id": 75, "name": "Nasi Goreng USA (Local Twist)", "category": "rice-based", "description": "Fried rice with a local sweet-spicy twist and fried egg.", "ingredients": [ "rice", "egg", "chicken", "sauce" ], "images": [ "../assets/nasi-goreng-usa.jpg" ], "likes": 123, "favorites": 29, "location": { "city": "Malacca", "state": "Melaka" }, "tags": [ "stir-fry", "sweet-spicy" ], "addedDate": "2019-05-01", "comment": [ { "userID": "user81", "text": "Tasty and addictive." } ] },

{ "id": 76, "name": "Sup Kambing", "category": "soup", "description": "Spiced mutton soup with herbs and potatoes.", "ingredients": [ "mutton", "potato", "spices", "onion" ], "images": [ "../assets/sup-kambing.jpg" ], "likes": 152, "favorites": 36, "location": { "city": "Brickfields", "state": "Kuala Lumpur" }, "tags": [ "hearty", "spiced" ], "addedDate": "2019-04-04", "comment": [ { "userID": "user82", "text": "Rich and comforting." } ] },

{ "id": 77, "name": "Nasi Paprik", "category": "rice-based", "description": "Rice served with spicy stir-fried meat and vegetables.", "ingredients": [ "rice", "meat", "bell pepper", "sambal" ], "images": [ "../assets/nasi-paprik.jpg" ], "likes": 118, "favorites": 25, "location": { "city": "Kuala Lumpur", "state": "Wilayah Persekutuan" }, "tags": [ "spicy", "stir-fry" ], "addedDate": "2019-03-03", "comment": [ { "userID": "user83", "text": "Colorful and tasty." } ] },

{ "id": 78, "name": "Sambal Bilis with Egg", "category": "fried", "description": "Crispy anchovies tossed in spicy sambal served with boiled egg.", "ingredients": [ "anchovies", "sambal", "egg", "sugar" ], "images": [ "../assets/sambal-bilis.jpg" ], "likes": 132, "favorites": 27, "location": { "city": "Ipoh", "state": "Perak" }, "tags": [ "spicy", "side-dish" ], "addedDate": "2019-02-10", "comment": [ { "userID": "user84", "text": "Great with plain rice." } ] },

{ "id": 79, "name": "Nasi Kukus Ayam Berempah", "category": "rice-based", "description": "Steamed rice with spiced fried chicken served with sambal.", "ingredients": [ "rice", "chicken", "spices", "sambal" ], "images": [ "img79.jpg" ], "likes": 174, "favorites": 48, "location": { "city": "Kuala Lumpur", "state": "Wilayah Persekutuan" }, "tags": [ "spicy", "fried" ], "addedDate": "2019-01-01", "comment": [ { "userID": "user85", "text": "Very flavorful." } ] },

{ "id": 80, "name": "Roti Telur", "category": "bread-based", "description": "Pan-fried flatbread stuffed with egg and onion.", "ingredients": [ "flour", "egg", "onion", "oil" ], "images": [ "../assets/roti-telur.jpeg" ], "likes": 94, "favorites": 20, "location": { "city": "Alor Setar", "state": "Kedah" }, "tags": [ "breakfast", "street-food" ], "addedDate": "2018-12-12", "comment": [ { "userID": "user86", "text": "Simple and filling." } ] },

{ "id": 81, "name": "Sup Tulang", "category": "soup", "description": "Spiced beef bone soup, rich in flavor and marrow.", "ingredients": [ "beef bones", "spices", "herbs", "potato" ], "images": [ "../assets/sup-tulang.webp" ], "likes": 137, "favorites": 33, "location": { "city": "Kuala Lumpur", "state": "Wilayah Persekutuan" }, "tags": [ "hearty", "soup" ], "addedDate": "2018-11-05", "comment": [ { "userID": "user87", "text": "Very flavorful and warming." } ] },

{ "id": 82, "name": "Sambal Petai Tofu", "category": "fried", "description": "Tofu stir-fried with petai and sambal for bold flavor.", "ingredients": [ "tofu", "petai", "chilies", "onion" ], "images": [ "../assets/petai-tofu.jpg" ], "likes": 110, "favorites": 24, "location": { "city": "Klang", "state": "Selangor" }, "tags": [ "strong-flavor", "spicy" ], "addedDate": "2018-10-01", "comment": [ { "userID": "user88", "text": "Great vegetarian option." } ] },

{ "id": 83, "name": "Nasi Lemak Vegetarian", "category": "rice-based", "description": "Nasi lemak served with vegetarian sides and sambal.", "ingredients": [ "rice", "coconut milk", "tofu", "peanuts", "sambal" ], "images": [ "img83.jpg" ], "likes": 128, "favorites": 35, "location": { "city": "Kuala Lumpur", "state": "Wilayah Persekutuan" }, "tags": [ "vegetarian", "breakfast" ], "addedDate": "2018-09-12", "comment": [ { "userID": "user89", "text": "Great vegetarian twist on a classic." } ] },

{ "id": 84, "name": "Sop Ikan", "category": "soup", "description": "Clear fish soup with vegetables and herbs.", "ingredients": [ "fish", "vegetables", "ginger", "herbs" ], "images": [ "../assets/sop-ikan.webp" ], "likes": 82, "favorites": 15, "location": { "city": "Sandakan", "state": "Sabah" }, "tags": [ "light", "seafood" ], "addedDate": "2018-08-08", "comment": [ { "userID": "user90", "text": "Light and fresh." } ] },

{ "id": 85, "name": "Nasi Lemak Sambal Sotong", "category": "rice-based", "description": "Nasi lemak topped with spicy sambal squid.", "ingredients": [ "rice", "coconut milk", "sambal sotong", "egg" ], "images": [ "img85.jpg" ], "likes": 198, "favorites": 52, "location": { "city": "Penang", "state": "Penang" }, "tags": [ "seafood", "spicy" ], "addedDate": "2018-07-07", "comment": [ { "userID": "user91", "text": "Love the sambal sotong kick." } ] },

{ "id": 86, "name": "Nasi Ayam Penyet", "category": "fried", "description": "Crispy smashed fried chicken served with rice and sambal.", "ingredients": [ "rice", "fried chicken", "sambal", "cucumber" ], "images": [ "../assets/nasi-ayam-penyet.jpg" ], "likes": 165, "favorites": 44, "location": { "city": "Kuala Lumpur", "state": "Wilayah Persekutuan" }, "tags": [ "crispy", "spicy" ], "addedDate": "2018-06-05", "comment": [ { "userID": "user92", "text": "Crispy and flavorful." } ] },

{ "id": 87, "name": "Nasi Goreng Kampung", "category": "rice-based", "description": "Rustic fried rice with anchovies, chili and vegetables.", "ingredients": [ "rice", "anchovies", "chilies", "vegetables" ], "images": [ "img87.jpg" ], "likes": 144, "favorites": 36, "location": { "city": "Kuala Lumpur", "state": "Wilayah Persekutuan" }, "tags": [ "spicy", "rustic" ], "addedDate": "2018-05-01", "comment": [ { "userID": "user93", "text": "Flavorful and nostalgic." } ] },

{ "id": 88, "name": "Soto Padang", "category": "soup", "description": "Beef soup with fried beef pieces and tangy broth.", "ingredients": [ "beef", "noodles", "fried beef", "spices" ], "images": [ "../assets/soto-padang.jpg" ], "likes": 97, "favorites": 20, "location": { "city": "Padang-Style", "state": "Kuala Lumpur" }, "tags": [ "hearty", "beef" ], "addedDate": "2018-04-04", "comment": [ { "userID": "user94", "text": "Rich and tasty." } ] },

{ "id": 89, "name": "Roti Tisu", "category": "bread-based", "description": "Very thin and crispy roti served with condensed milk or sugar.", "ingredients": [ "flour", "sugar", "condensed milk", "butter" ], "images": [ "../assets/roti-tisu.jpg" ], "likes": 160, "favorites": 39, "location": { "city": "Kuala Lumpur", "state": "Wilayah Persekutuan" }, "tags": [ "sweet", "dessert", "snack" ], "addedDate": "2024-05-20", "comment": [ { "userID": "user137", "text": "Crispy and sweet, loved it!" } ] },

{ "id": 90, "name": "Nasi Lemak Sambal Udang", "category": "rice-based", "description": "Nasi lemak served with spicy sambal prawns.", "ingredients": [ "rice", "coconut milk", "sambal udang", "peanuts" ], "images": [ "img90.jpg" ], "likes": 216, "favorites": 61, "location": { "city": "George Town", "state": "Penang" }, "tags": [ "seafood", "spicy" ], "addedDate": "2018-02-02", "comment": [ { "userID": "user96", "text": "Excellent sambal prawns." } ] },

{ "id": 91, "name": "Roti Bakar", "category": "bread-based", "description": "Toasted bread with butter, kaya or condensed milk.", "ingredients": [ "bread", "butter", "kaya", "condensed milk" ], "images": [ "../assets/roti-bakar.jpg" ], "likes": 88, "favorites": 21, "location": { "city": "Kuala Lumpur", "state": "Wilayah Persekutuan" }, "tags": [ "breakfast", "snack" ], "addedDate": "2018-01-01", "comment": [ { "userID": "user97", "text": "Simple and nostalgic." } ] },

{ "id": 92, "name": "Nasi Lemak Ikan Masin", "category": "rice-based", "description": "Nasi lemak topped with preserved salted fish for extra umami.", "ingredients": [ "rice", "coconut milk", "salted fish", "sambal" ], "images": [ "img92.jpg" ], "likes": 154, "favorites": 39, "location": { "city": "Kota Bharu", "state": "Kelantan" }, "tags": [ "umami", "traditional" ], "addedDate": "2017-12-12", "comment": [ { "userID": "user98", "text": "Love the savory salted fish." } ] },

{ "id": 93, "name": "Nasi Lemak Sotong Hitam", "category": "rice-based", "description": "Nasi lemak served with squid in black ink sauce.", "ingredients": [ "rice", "coconut milk", "squid ink", "squid" ], "images": [ "img93.jpg" ], "likes": 131, "favorites": 30, "location": { "city": "Kota Kinabalu", "state": "Sabah" }, "tags": [ "unique", "seafood" ], "addedDate": "2017-11-11", "comment": [ { "userID": "user99", "text": "Interesting flavor and color." } ] },

{ "id": 94, "name": "Nasi Lemak Rendang Ayam", "category": "rice-based", "description": "Nasi lemak served with chicken rendang.", "ingredients": [ "rice", "coconut milk", "chicken rendang", "sambal" ], "images": [ "img94.jpg" ], "likes": 176, "favorites": 46, "location": { "city": "Ipoh", "state": "Perak" }, "tags": [ "rich", "spicy" ], "addedDate": "2017-10-10", "comment": [ { "userID": "user100", "text": "Great pairing." } ] },

{ "id": 95, "name": "Tempeh Goreng", "category": "fried", "description": "Fried tempeh served with chili sauce.", "ingredients": [ "tempeh", "flour", "oil", "chili" ], "images": [ "../assets/tempeh-goreng.jpg" ], "likes": 71, "favorites": 14, "location": { "city": "Kuala Lumpur", "state": "Wilayah Persekutuan" }, "tags": [ "vegetarian", "crispy" ], "addedDate": "2017-09-09", "comment": [ { "userID": "user101", "text": "Crispy and tasty." } ] },

{ "id": 96, "name": "Nasi Lemak Sambal Ikan Bilis", "category": "rice-based", "description": "Classic nasi lemak topped with crispy sambal anchovies.", "ingredients": [ "rice", "coconut milk", "anchovies", "sambal", "egg" ], "images": [ "img96.jpg" ], "likes": 230, "favorites": 75, "location": { "city": "Kuala Lumpur", "state": "Wilayah Persekutuan" }, "tags": [ "classic", "breakfast" ], "addedDate": "2017-08-08", "comment": [ { "userID": "user102", "text": "Can't beat the classic combo." } ] },

{ "id": 97, "name": "Rendang Daging Tok", "category": "fried", "description": "Traditional family-style beef rendang, slow-cooked.", "ingredients": [ "beef", "coconut milk", "spices", "lemongrass" ], "images": [ "../assets/rendang-tok.jpg" ], "likes": 312, "favorites": 98, "location": { "city": "Kuala Lumpur", "state": "Wilayah Persekutuan" }, "tags": [ "festive", "rich" ], "addedDate": "2017-07-07", "comment": [ { "userID": "user103", "text": "Deep, complex flavors." } ] },

{ "id": 98, "name": "Nasi Goreng Kampung Pedas", "category": "rice-based", "description": "Village-style spicy fried rice with anchovies and veggies.", "ingredients": [ "rice", "anchovies", "chilies", "vegetables" ], "images": [ "img98.jpg" ], "likes": 143, "favorites": 35, "location": { "city": "Kuala Lumpur", "state": "Wilayah Persekutuan" }, "tags": [ "spicy", "rustic" ], "addedDate": "2017-06-06", "comment": [ { "userID": "user104", "text": "Good heat and flavor." } ] },

{ "id": 99, "name": "Kuih Bingka Ubi", "category": "desserts", "description": "Baked tapioca cake with coconut and sugar.", "ingredients": [ "tapioca", "coconut milk", "sugar" ], "images": [ "../assets/bingka-ubi.jpg" ], "likes": 59, "favorites": 11, "location": { "city": "Melaka", "state": "Melaka" }, "tags": [ "sweet", "traditional" ], "addedDate": "2017-05-05", "comment": [ { "userID": "user105", "text": "Chewy and sweet." } ] },

{ "id": 100, "name": "Bubur Cha-Cha", "category": "desserts", "description": "Sweet coconut milk dessert with yam, sweet potato and tapioca.", "ingredients": [ "yam", "sweet potato", "tapioca", "coconut milk", "sugar" ], "images": [ "../assets/bubur-chacha.jpg" ], "likes": 176, "favorites": 45, "location": { "city": "George Town", "state": "Penang" }, "tags": [ "sweet", "dessert" ], "addedDate": "2017-04-04", "comment": [ { "userID": "user106", "text": "Comforting dessert." } ] },

{ "id": 101, "name": "Nasi Lemak Original", "category": "rice-based", "description": "Traditional nasi lemak with sambal, egg and anchovies.", "ingredients": [ "rice", "coconut milk", "sambal", "anchovies", "egg" ], "images": [ "img101.jpg" ], "likes": 260, "favorites": 80, "location": { "city": "Kuala Lumpur", "state": "Wilayah Persekutuan" }, "tags": [ "classic", "breakfast" ], "addedDate": "2017-03-03", "comment": [ { "userID": "user107", "text": "Timeless favorite!" } ] },

{ "id": 102, "name": "Ayam Masak Kicap", "category": "fried", "description": "Chicken cooked in sweet soy sauce with spices.", "ingredients": [ "chicken", "kicap manis", "onion", "garlic" ], "images": [ "../assets/ayam-kicap.jpg" ], "likes": 125, "favorites": 29, "location": { "city": "Kuala Lumpur", "state": "Wilayah Persekutuan" }, "tags": [ "sweet", "savory" ], "addedDate": "2017-02-02", "comment": [ { "userID": "user108", "text": "Simple and tasty." } ] },

{ "id": 103, "name": "Sayur Masak Lemak", "category": "fried", "description": "Mixed vegetables cooked in a lightly spiced coconut gravy.", "ingredients": [ "vegetables", "coconut milk", "turmeric", "spices" ], "images": [ "../assets/sayur-lemak.webp" ], "likes": 90, "favorites": 21, "location": { "city": "Pahang", "state": "Pahang" }, "tags": [ "vegetarian", "coconut" ], "addedDate": "2017-01-01", "comment": [ { "userID": "user109", "text": "Comforting vegan-friendly dish." } ] },

{ "id": 104, "name": "Nasi Lemak Sambal Telur", "category": "rice-based", "description": "Nasi lemak served with sambal eggs and anchovies.", "ingredients": [ "rice", "coconut milk", "sambal", "egg", "anchovies" ], "images": [ "img104.jpg" ], "likes": 198, "favorites": 55, "location": { "city": "Ipoh", "state": "Perak" }, "tags": [ "classic", "breakfast" ], "addedDate": "2016-12-12", "comment": [ { "userID": "user110", "text": "Lovely spicy egg." } ] },

{ "id": 105, "name": "Sambal Tempeh", "category": "fried", "description": "Tempeh stir-fried in spicy sambal, hearty and savory.", "ingredients": [ "tempeh", "sambal", "onion", "garlic" ], "images": [ "../assets/sambal-tempeh.png" ], "likes": 76, "favorites": 14, "location": { "city": "Kuala Lumpur", "state": "Wilayah Persekutuan" }, "tags": [ "vegetarian", "spicy" ], "addedDate": "2016-11-11", "comment": [ { "userID": "user111", "text": "Great plant-based option." } ] },

{ "id": 106, "name": "Nasi Jagung", "category": "rice-based", "description": "Corn rice served with various side dishes, a local specialty.", "ingredients": [ "corn", "rice", "vegetables", "meat" ], "images": [ "img106.jpg" ], "likes": 68, "favorites": 10, "location": { "city": "Sandakan", "state": "Sabah" }, "tags": [ "local", "traditional" ], "addedDate": "2016-10-10", "comment": [ { "userID": "user112", "text": "Rustic and filling." } ] },

{ "id": 107, "name": "Nasi Lemak Sambal Kerang", "category": "rice-based", "description": "Nasi lemak served with spicy cockles in sambal.", "ingredients": [ "rice", "coconut milk", "cockles", "sambal" ], "images": [ "img107.jpg" ], "likes": 182, "favorites": 48, "location": { "city": "Penang", "state": "Penang" }, "tags": [ "seafood", "spicy" ], "addedDate": "2016-09-09", "comment": [ { "userID": "user113", "text": "Nice seafood twist." } ] },

{ "id": 108, "name": "Rendang Ikan", "category": "grilled", "description": "Fish cooked rendang-style with rich spices.", "ingredients": [ "fish", "coconut milk", "rendang spices", "lemongrass" ], "images": [ "../assets/rendang-ikan.jpg" ], "likes": 139, "favorites": 33, "location": { "city": "Kuala Lumpur", "state": "Wilayah Persekutuan" }, "tags": [ "rendang", "seafood" ], "addedDate": "2016-08-08", "comment": [ { "userID": "user114", "text": "Unique and tasty." } ] },

{ "id": 109, "name": "Nasi Lemak Sambal Kerang Istimewa", "category": "rice-based", "description": "Special version of nasi lemak with extra cockles and spice.", "ingredients": [ "rice", "coconut milk", "cockles", "extra sambal" ], "images": [ "" ], "likes": 203, "favorites": 60, "location": { "city": "George Town", "state": "Penang" }, "tags": [ "seafood", "special" ], "addedDate": "2016-07-07", "comment": [ { "userID": "user115", "text": "Very flavorful and spicy." } ] },

{ "id": 110, "name": "Lemang Pulut", "category": "grilled", "description": "Glutinous rice cooked in bamboo with coconut milk; served during celebrations.", "ingredients": [ "glutinous rice", "coconut milk", "bamboo" ], "images": [ "../assets/lemang-pulut.jpeg" ], "likes": 88, "favorites": 19, "location": { "city": "Kota Bharu", "state": "Kelantan" }, "tags": [ "festive", "traditional" ], "addedDate": "2016-06-06", "comment": [ { "userID": "user116", "text": "Aromatic and festive." } ] },

{ "id": 111, "name": "Nasi Lemak Sambal Daging", "category": "rice-based", "description": "Nasi lemak topped with spicy beef sambal.", "ingredients": [ "rice", "coconut milk", "beef sambal", "egg" ], "images": [ "img111.jpg" ], "likes": 189, "favorites": 51, "location": { "city": "Kuala Lumpur", "state": "Wilayah Persekutuan" }, "tags": [ "beef", "spicy" ], "addedDate": "2016-05-05", "comment": [ { "userID": "user117", "text": "Hearty and satisfying." } ] },

{ "id": 112, "name": "Nasi Lemak Sambal Kambing", "category": "rice-based", "description": "Nasi lemak served with spicy mutton sambal.", "ingredients": [ "rice", "coconut milk", "mutton sambal", "peanuts" ], "images": [ "img112.jpg" ], "likes": 164, "favorites": 44, "location": { "city": "Kuala Lumpur", "state": "Wilayah Persekutuan" }, "tags": [ "mutton", "spicy" ], "addedDate": "2016-04-04", "comment": [ { "userID": "user118", "text": "Rich and bold flavor." } ] },

{ "id": 113, "name": "Kerabu Mangga", "category": "wraps", "description": "Spicy mango salad with herbs and toasted coconut (often wrapped in banana leaf for serving).", "ingredients": [ "mango", "chilies", "shallots", "coconut" ], "images": [ "../assets/kerabu-mangga.jpg" ], "likes": 95, "favorites": 18, "location": { "city": "Perlis", "state": "Perlis" }, "tags": [ "fresh", "spicy" ], "addedDate": "2016-03-03", "comment": [ { "userID": "user119", "text": "Refreshing and zesty." } ] },

{ "id": 114, "name": "Nasi Lemak Sambal Telur Dadar", "category": "rice-based", "description": "Nasi lemak served with a fluffy omelette and spicy sambal.", "ingredients": [ "rice", "coconut milk", "omelette", "sambal" ], "images": [ "img114.jpg" ], "likes": 141, "favorites": 34, "location": { "city": "Ipoh", "state": "Perak" }, "tags": [ "breakfast", "egg" ], "addedDate": "2016-02-02", "comment": [ { "userID": "user120", "text": "Great protein boost in the morning." } ] },

{ "id": 115, "name": "Nasi Lemak Sambal Sotong Pedas", "category": "rice-based", "description": "Spicy squid sambal served atop classic nasi lemak.", "ingredients": [ "rice", "coconut milk", "squid", "sambal" ], "images": [ "img115.jpg" ], "likes": 203, "favorites": 58, "location": { "city": "Penang", "state": "Penang" }, "tags": [ "seafood", "hot" ], "addedDate": "2016-01-01", "comment": [ { "userID": "user121", "text": "Very spicy but delicious." } ] },

{ "id": 116, "name": "Nasi Goreng Pattaya", "category": "rice-based", "description": "Fried rice wrapped in a thin omelette, popular street dish.", "ingredients": [ "rice", "egg", "chicken", "ketchup" ], "images": [ "img116.jpg" ], "likes": 129, "favorites": 31, "location": { "city": "Kuala Lumpur", "state": "Wilayah Persekutuan" }, "tags": [ "street-food", "novelty" ], "addedDate": "2015-12-12", "comment": [ { "userID": "user122", "text": "Fun and tasty!" } ] },

{ "id": 117, "name": "Nasi Kerabu Ayam Percik", "category": "rice-based", "description": "Blue herb rice served with ayam percik and sides.", "ingredients": [ "rice", "butterfly pea", "ayam percik", "herbs" ], "images": [ "img117.jpg" ], "likes": 158, "favorites": 41, "location": { "city": "Kota Bharu", "state": "Kelantan" }, "tags": [ "colorful", "herbal" ], "addedDate": "2015-11-11", "comment": [ { "userID": "user123", "text": "Beautiful and flavorful." } ] },

{ "id": 118, "name": "Pulut Inti", "category": "desserts", "description": "Glutinous rice topped with sweet grated coconut.", "ingredients": [ "glutinous rice", "coconut", "palm sugar" ], "images": [ "../assets/pulut-inti.webp" ], "likes": 72, "favorites": 13, "location": { "city": "Melaka", "state": "Melaka" }, "tags": [ "sweet", "traditional" ], "addedDate": "2015-10-10", "comment": [ { "userID": "user124", "text": "Sweet and satisfying." } ] },

{ "id": 119, "name": "Lemper Ayam", "category": "wraps", "description": "Indonesian-style glutinous rice roll with spiced shredded chicken.", "ingredients": [ "glutinous rice", "chicken", "coconut milk", "banana leaf" ], "images": [ "../assets/lemper-ayam.jpg" ], "likes": 86, "favorites": 18, "location": { "city": "Kuala Lumpur", "state": "Wilayah Persekutuan" }, "tags": [ "snack", "portable" ], "addedDate": "2015-09-09", "comment": [ { "userID": "user125", "text": "Great for picnics." } ] },

{ "id": 120, "name": "Nasi Lemak Istimewa", "category": "rice-based", "description": "Special nasi lemak platter with multiple premium sides.", "ingredients": [ "rice", "coconut milk", "prawns", "rendang", "sambal" ], "images": [ "../assets/istimewa.jpg" ], "likes": 412, "favorites": 140, "location": { "city": "Kuala Lumpur", "state": "Wilayah Persekutuan" }, "tags": [ "special", "rich" ], "addedDate": "2015-08-08", "comment": [ { "userID": "user126", "text": "Ultimate nasi lemak experience." } ] }, 

{ "id": 121, "name": "Roti John", "category": "bread-based", "description": "A popular Malaysian sandwich made with a baguette filled with minced meat, egg, and onions.", "ingredients": [ "bread", "minced meat", "egg", "onion", "mayonnaise" ], "images": [ "../assets/roti-john.avif" ], "likes": 201, "favorites": 45, "location": { "city": "Kuala Lumpur", "state": "Wilayah Persekutuan" }, "tags": [ "street-food", "savory", "snack" ], "addedDate": "2025-09-01", "comment": [ { "userID": "user127", "text": "Absolutely love this filling!" }, { "userID": "user128", "text": "Perfect snack for lunch!" } ] },

{ "id": 122, "name": "Kerabu Ayam", "category": "wraps", "description": "A spicy and tangy chicken salad made with shredded chicken and fresh herbs.", "ingredients": [ "chicken", "lemongrass", "chilies", "lime juice", "mint", "shallots" ], "images": [ "../assets/kerabu-ayam.jpg" ], "likes": 165, "favorites": 38, "location": { "city": "Kota Bharu", "state": "Kelantan" }, "tags": [ "spicy", "refreshing", "herbal" ], "addedDate": "2025-07-22", "comment": [ { "userID": "user129", "text": "So refreshing and tasty!" } ] },

{ "id": 123, "name": "Kway Teow Soup", "category": "soup", "description": "Clear noodle soup with flat rice noodles, chicken or seafood, and herbs.", "ingredients": [ "flat rice noodles", "chicken", "fish balls", "garlic", "spring onions" ], "images": [ "../assets/kway-teow-soup.jpg" ], "likes": 180, "favorites": 50, "location": { "city": "Penang", "state": "Penang" }, "tags": [ "light", "comfort-food", "soup" ], "addedDate": "2025-06-10", "comment": [ { "userID": "user130", "text": "A perfect bowl for rainy days." } ] },

{ "id": 124, "name": "Apam Polkadot", "category": "desserts", "description": "Colorful steamed rice flour cakes spotted with multi-colored dots.", "ingredients": [ "rice flour", "coconut milk", "sugar", "food coloring" ], "images": [ "../assets/polkadot.jpeg" ], "likes": 75, "favorites": 18, "location": { "city": "Melaka", "state": "Melaka" }, "tags": [ "dessert", "traditional", "sweet" ], "addedDate": "2025-05-15", "comment": [ { "userID": "user131", "text": "Lovely to look at and tasty!" } ] },

{ "id": 125, "name": "Chee Cheong Fun", "category": "noodles", "description": "Steamed rice noodle rolls served with sweet sauce and sesame.", "ingredients": [ "rice flour", "soy sauce", "sesame seeds", "spring onion", "fried shallots" ], "images": [ "../assets/chee-cheong-fun.jpg" ], "likes": 205, "favorites": 57, "location": { "city": "Kuala Lumpur", "state": "Wilayah Persekutuan" }, "tags": [ "savory", "street-food" ], "addedDate": "2025-04-01", "comment": [ { "userID": "user132", "text": "One of my favorite breakfast foods." } ] },

{ "id": 126, "name": "Nasi Kukus Ayam Masak Merah", "category": "rice-based", "description": "Steamed fragrant rice served with spicy red cooked chicken.", "ingredients": [ "rice", "chicken", "tomato sauce", "chilies", "coconut milk" ], "images": [ "img126.jpg" ], "likes": 190, "favorites": 48, "location": { "city": "Shah Alam", "state": "Selangor" }, "tags": [ "spicy", "delicious" ], "addedDate": "2025-03-17", "comment": [ { "userID": "user133", "text": "Rich, flavorful and very tasty!" } ] },

{ "id": 127, "name": "Carrot Cake (Char Kuey Kak)", "category": "fried", "description": "Fried radish cake with egg, preserved radish, and chili.", "ingredients": [ "radish cake", "egg", "preserved radish", "chili sauce", "spring onion" ], "images": [ "../assets/char-kway-kak.webp" ], "likes": 220, "favorites": 50, "location": { "city": "Penang", "state": "Penang" }, "tags": [ "savory", "stir-fry", "street-food" ], "addedDate": "2025-02-20", "comment": [ { "userID": "user134", "text": "Love the smoky flavor!" } ] },

{ "id": 128, "name": "Tepung Pelita", "category": "desserts", "description": "Layered coconut milk and pandan sweet pudding.", "ingredients": [ "coconut milk", "pandan juice", "rice flour", "sugar" ], "images": [ "../assets/tepung-pelita.jpg" ], "likes": 90, "favorites": 22, "location": { "city": "Kuala Lumpur", "state": "Wilayah Persekutuan" }, "tags": [ "sweet", "traditional" ], "addedDate": "2025-01-15", "comment": [ { "userID": "user135", "text": "Smooth and delicious." } ] },

{ "id": 129, "name": "Mee Sotong", "category": "noodles", "description": "Spicy stir fried squid with noodles, a popular street dish.", "ingredients": [ "squid", "egg noodles", "chili", "soy sauce", "onion" ], "images": [ "../assets/mee-sotong.jpeg" ], "likes": 195, "favorites": 42, "location": { "city": "Klang", "state": "Selangor" }, "tags": [ "seafood", "spicy", "street-food" ], "addedDate": "2024-06-05", "comment": [ { "userID": "user136", "text": "Spicy and delicious!" } ] } ]